City,Latitude,Longitude,測站
新北,25.1649,121.4489,466900
臺北,25.0377,121.5149,466920
基隆,25.1333,121.7405,466940
桃園,25.0067,121.0475,467050
新竹,24.8279,121.0142,467571
嘉義,23.4959,120.4329,467480
臺中,24.1457,120.6841,467490
南投,23.8831,120.9081,467650
臺南,22.9932,120.2048,467410
屏東,22.0039,120.7463,467590
宜蘭,24.764,121.7565,467080
花蓮,23.9751,121.6133,466990
臺東,22.7522,121.1546,467660
澎湖,23.5655,119.5631,467350
